[{"id":"1","airport_id":"139","map_lat":"52.38544109999999","map_lng":"13.521614799999952","map_zoom":"22","map_address":"Berlin Brandenburg Airport, Flughafenstra\u00dfe, 12529 Berlin, Germany","map_country":"DE"},{"id":"2","airport_id":"136","map_lat":"49.0096906","map_lng":"2.547924500000022","map_zoom":"5","map_address":"95700 Roissy-en-France, France","map_country":"FR"},{"id":"3","airport_id":"137","map_lat":"55.41030689999999","map_lng":"37.90245129999994","map_zoom":"2","map_address":"Domodedovsky District, Moscow Oblast, Russia","map_country":"RU"},{"id":"4","airport_id":"124","map_lat":"48.7262433","map_lng":"2.365247199999999","map_zoom":"22","map_address":"94390 Orly, France","map_country":"FR"},{"id":"5","airport_id":"142","map_lat":"42.3656132","map_lng":"-71.00956020000001","map_zoom":"3","map_address":"1 Harborside Dr, Boston, MA 02128, USA","map_country":"US"},{"id":"6","airport_id":"138","map_lat":"41.7998868","map_lng":"12.246238400000038","map_zoom":"3","map_address":"Via dell\\' Aeroporto di Fiumicino, 00054 Fiumicino RM, Italy","map_country":"IT"},{"id":"7","airport_id":"144","map_lat":"40.64737845312088","map_lng":"-73.7801456451416","map_zoom":"15","map_address":"JFK Access Rd, Jamaica, NY 11430, USA","map_country":"US"},{"id":"8","airport_id":"141","map_lat":"-33.93992280000001","map_lng":"151.17527640000003","map_zoom":"2","map_address":"Sydney NSW 2020, Australia","map_country":"AU"},{"id":"9","airport_id":"143","map_lat":"0","map_lng":"0","map_zoom":"0","map_address":"","map_country":""}]