[{"post_id":"8","multi_location":"_275_","id_location":"","address":"111 East 48th Street, New York, New York 10017","allow_full_day":"on","rate_review":"5","hotel_star":"1","price_avg":"181.33333333333","min_price":"130","hotel_booking_period":"0","map_lat":"40.7564971","map_lng":"-73.9743277","is_sale_schedule":""},{"post_id":"17","multi_location":"_275_","id_location":"","address":"233 West 49th Street New York, NY 10019 ","allow_full_day":"on","rate_review":"0","hotel_star":"5","price_avg":"244","min_price":"244","hotel_booking_period":"0","map_lat":"40.761459","map_lng":"-73.985473","is_sale_schedule":""},{"post_id":"185","multi_location":"_282_","id_location":"","address":"","allow_full_day":"on","rate_review":"0","hotel_star":"5","price_avg":"315","min_price":"315","hotel_booking_period":"0","map_lat":"22.281286 ","map_lng":"114.172090","is_sale_schedule":""},{"post_id":"186","multi_location":"_275_","id_location":"","address":"871 Seventh Avenue at 55th Street New York, NY 10019 - USA","allow_full_day":"on","rate_review":"0","hotel_star":"1","price_avg":"130","min_price":"130","hotel_booking_period":"0","map_lat":"40.764425","map_lng":"-73.980567","is_sale_schedule":""},{"post_id":"4600","multi_location":"_287_","id_location":"","address":"871 Seventh Avenue at 55th Street Paris, France","allow_full_day":"on","rate_review":"5","hotel_star":"1","price_avg":"245.7","min_price":"245.7","hotel_booking_period":"0","map_lat":"40.764425","map_lng":"-73.980567","is_sale_schedule":""},{"post_id":"530","multi_location":"_277_","id_location":"","address":"4 Battle Bridge Lane London ","allow_full_day":"on","rate_review":"0","hotel_star":"2","price_avg":"234","min_price":"234","hotel_booking_period":"5","map_lat":"-22.966915","map_lng":"-43.178999999999974","is_sale_schedule":""},{"post_id":"531","multi_location":"_275_","id_location":"","address":"45 West 44th Street, New York, NY 10036","allow_full_day":"on","rate_review":"1.7","hotel_star":"1","price_avg":"404.35","min_price":"245.7","hotel_booking_period":"0","map_lat":"40.755784","map_lng":"-73.981797","is_sale_schedule":""},{"post_id":"532","multi_location":"_279_","id_location":"","address":" 6782 Sarasea Circle, Siesta Key, FL 34242","allow_full_day":"on","rate_review":"0","hotel_star":"1","price_avg":"282","min_price":"264","hotel_booking_period":"0","map_lat":"27.252516","map_lng":"-82.523825","is_sale_schedule":""},{"post_id":"533","multi_location":"_275_","id_location":"","address":" 6782 Sarasea Circle, Siesta Key, FL 34242","allow_full_day":"on","rate_review":"0","hotel_star":"1","price_avg":"412.25","min_price":"273","hotel_booking_period":"11","map_lat":"40.7564971","map_lng":"-73.9743277","is_sale_schedule":""},{"post_id":"984","multi_location":"_287_","id_location":"","address":"5 Rue de la Paix 75002 Paris France","allow_full_day":"on","rate_review":"4","hotel_star":"4","price_avg":"273","min_price":"273","hotel_booking_period":"0","map_lat":"48.868913","map_lng":"2.330309","is_sale_schedule":""},{"post_id":"605","multi_location":"_275_","id_location":"","address":"1335 Avenue of the Americas, New York, NY 10019","allow_full_day":"on","rate_review":"0","hotel_star":"5","price_avg":"128","min_price":"128","hotel_booking_period":"0","map_lat":"40.762358","map_lng":"-73.979168","is_sale_schedule":""},{"post_id":"953","multi_location":"_287_","id_location":"","address":"111 East 48th Street, Paris, France","allow_full_day":"on","rate_review":"0","hotel_star":"5","price_avg":"128","min_price":"128","hotel_booking_period":"0","map_lat":"40.7564971","map_lng":"-73.9743277","is_sale_schedule":""},{"post_id":"658","multi_location":"_284_","id_location":"","address":"The Kimberley Hotel , 11-19 Kings Road , Harrogate , HG1 5JY","allow_full_day":"on","rate_review":"0","hotel_star":"1","price_avg":"130","min_price":"130","hotel_booking_period":"0","map_lat":"53.998877","map_lng":"-1.540946","is_sale_schedule":""},{"post_id":"954","multi_location":"_275_","id_location":"","address":"233 West 49th Street New York, NY 10019, Paris","allow_full_day":"on","rate_review":"0","hotel_star":"5","price_avg":"189.75","min_price":"56","hotel_booking_period":"0","map_lat":"40.761459","map_lng":"-73.985473","is_sale_schedule":""},{"post_id":"979","multi_location":"_276_","id_location":"","address":"Flinders Lane and Spencer Street, Melbourne, Australia ","allow_full_day":"on","rate_review":"0","hotel_star":"1","price_avg":"315","min_price":"315","hotel_booking_period":"8","map_lat":"-37.820041","map_lng":"144.954715","is_sale_schedule":""},{"post_id":"980","multi_location":"_276_","id_location":"","address":" Pierpoint Road Cairns , QLD 4870 Australia","allow_full_day":"on","rate_review":"0","hotel_star":"5","price_avg":"245.7","min_price":"245.7","hotel_booking_period":"0","map_lat":"-16.920349","map_lng":"145.779849","is_sale_schedule":""},{"post_id":"981","multi_location":"_287_","id_location":"","address":"Intercontinental Paris Avenue Marceau - 64 Av. Marceau 75008 Paris","allow_full_day":"on","rate_review":"0","hotel_star":"5","price_avg":"252","min_price":"252","hotel_booking_period":"3","map_lat":"48.870637","map_lng":"2.298209","is_sale_schedule":""},{"post_id":"983","multi_location":"_287_","id_location":"","address":"Saint-Germain-Des-Pr\u00e9s, 6\u00e8me 13 rue des Beaux Arts 75006 Paris France ","allow_full_day":"on","rate_review":"0","hotel_star":"4","price_avg":"144","min_price":"144","hotel_booking_period":"0","map_lat":"48.856227","map_lng":"2.335176","is_sale_schedule":""},{"post_id":"982","multi_location":"_287_","id_location":"","address":"Champs-Elys\u00e9es, 8\u00e8me 5 rue de Berri 75008 Paris France ","allow_full_day":"on","rate_review":"5","hotel_star":"0","price_avg":"234","min_price":"234","hotel_booking_period":"0","map_lat":"48.871903","map_lng":"2.303156","is_sale_schedule":""},{"post_id":"986","multi_location":"_287_","id_location":"","address":"Saint-Germain-Des-Pr\u00e9s, 6\u00e8me 13 rue des Beaux Arts 75006 Paris France ","allow_full_day":"on","rate_review":"0","hotel_star":"0","price_avg":"335","min_price":"335","hotel_booking_period":"30","map_lat":"48.856227","map_lng":"2.335176","is_sale_schedule":""},{"post_id":"987","multi_location":"_287_","id_location":"","address":" Grand Hotel du Palais Royal 4 Rue De Valois Paris , 75001 France","allow_full_day":"on","rate_review":"3","hotel_star":"4","price_avg":"267","min_price":"267","hotel_booking_period":"0","map_lat":"48.863083","map_lng":"2.337859","is_sale_schedule":""},{"post_id":"988","multi_location":"_287_","id_location":"","address":" 15, rue Boissy d'Anglas Paris , 75008 France","allow_full_day":"on","rate_review":"4","hotel_star":"5","price_avg":"244","min_price":"244","hotel_booking_period":"0","map_lat":"48.868730","map_lng":"2.321668","is_sale_schedule":""},{"post_id":"989","multi_location":"_287_","id_location":"","address":"16 rue de Berri, 75008 PARIS","allow_full_day":"on","rate_review":"4","hotel_star":"5","price_avg":"315","min_price":"315","hotel_booking_period":"10","map_lat":"48.872730","map_lng":"2.304741","is_sale_schedule":""},{"post_id":"990","multi_location":"_287_","id_location":"","address":" 7 Rue De Berri Champs Elysees Paris , 75008 France","allow_full_day":"on","rate_review":"3.1","hotel_star":"5","price_avg":"226","min_price":"128","hotel_booking_period":"0","map_lat":"48.872344","map_lng":"2.303338","is_sale_schedule":""},{"post_id":"992","multi_location":"_287_","id_location":"","address":"Le Ritz Paris 15 Place Vend\u00f4me 75001 Paris 75001 Paris","allow_full_day":"on","rate_review":"4","hotel_star":"5","price_avg":"57","min_price":"57","hotel_booking_period":"0","map_lat":"48.867961","map_lng":"2.328902","is_sale_schedule":""},{"post_id":"991","multi_location":"_287_","id_location":"","address":" 10 avenue d'I\u00e9na Paris , 75116 France","allow_full_day":"on","rate_review":"5","hotel_star":"3","price_avg":"253","min_price":"10","hotel_booking_period":"0","map_lat":"48.863919","map_lng":"2.293356","is_sale_schedule":""},{"post_id":"4601","multi_location":"_287_","id_location":"","address":" 6782 Sarasea Circle, Siesta Key, FL 34242","allow_full_day":"on","rate_review":"4","hotel_star":"5","price_avg":"180","min_price":"45","hotel_booking_period":"0","map_lat":"27.252516","map_lng":"-82.523825","is_sale_schedule":""}]